<?xml version="1.0" encoding="utf-8"?>
<BikeShares xmlns:xsi="http://www.w3.org/2001/XMLSchema-instance" xmlns:xsd="http://www.w3.org/2001/XMLSchema">
  <BikeShare>
    <Vendor>CityBikes</Vendor>
    <City>Montreal, QC</City>
    <Country>Canada</Country>
    <Url>http://api.citybik.es/bixi-montreal.json</Url>
    <Latitude>45.508669</Latitude>
    <Longitude>-73.553992</Longitude>
    <CacheHack>0</CacheHack>
    <EndPointStatus>1</EndPointStatus>
  </BikeShare>
  <BikeShare>
    <Vendor>CityBikes</Vendor>
    <City>Washington, DC</City>
    <Country>United States</Country>
    <Url>http://api.citybik.es/capital-bikeshare.json</Url>
    <Latitude>38.896758</Latitude>
    <Longitude>-77.037016</Longitude>
    <CacheHack>0</CacheHack>
    <EndPointStatus>1</EndPointStatus>
  </BikeShare>
  <BikeShare>
    <Vendor>CityBikes</Vendor>
    <City>London</City>
    <Country>United Kingdom</Country>
    <Url>http://api.citybik.es/barclays-cycle-hire.json</Url>
    <Latitude>51.511213</Latitude>
    <Longitude>-0.119824</Longitude>
    <CacheHack>0</CacheHack>
    <EndPointStatus>1</EndPointStatus>
  </BikeShare>
  <BikeShare>
    <Vendor>CityBikes</Vendor>
    <City>Melbourne</City>
    <Country>Australia</Country>
    <Url>http://api.citybik.es/melbourne-bike-share.json</Url>
    <Latitude>-37.814107</Latitude>
    <Longitude>144.96328</Longitude>
    <CacheHack>0</CacheHack>
    <EndPointStatus>1</EndPointStatus>
  </BikeShare>
  <BikeShare>
    <Vendor>CityBikes</Vendor>
    <City>Boston, MA</City>
    <Country>United States</Country>
    <Url>http://api.citybik.es/hubway.json</Url>
    <Latitude>42.35843</Latitude>
    <Longitude>-71.059773</Longitude>
    <CacheHack>0</CacheHack>
    <EndPointStatus>1</EndPointStatus>
  </BikeShare>
  <BikeShare>
    <Vendor>CityBikes</Vendor>
    <City>Wien</City>
    <Country>Austria</Country>
    <Url>http://api.citybik.es/citybike-wien.json</Url>
    <Latitude>48.208174</Latitude>
    <Longitude>16.373818</Longitude>
    <CacheHack>0</CacheHack>
    <EndPointStatus>1</EndPointStatus>
  </BikeShare>
  <BikeShare>
    <Vendor>CityBikes</Vendor>
    <City>Chattanooga, TN</City>
    <Country>United States</Country>
    <Url>http://api.citybik.es/bike-chattanooga.json</Url>
    <Latitude>35.045629</Latitude>
    <Longitude>-85.30968</Longitude>
    <CacheHack>0</CacheHack>
    <EndPointStatus>1</EndPointStatus>
  </BikeShare>
  <BikeShare>
    <Vendor>CityBikes</Vendor>
    <City>Ottawa, ON</City>
    <Country>Canada</Country>
    <Url>http://api.citybik.es/capital-bixi.json</Url>
    <Latitude>45.421529</Latitude>
    <Longitude>-75.697193</Longitude>
    <CacheHack>0</CacheHack>
    <EndPointStatus>1</EndPointStatus>
  </BikeShare>
  <BikeShare>
    <Vendor>CityBikes</Vendor>
    <City>Minneapolis, MN</City>
    <Country>United States</Country>
    <Url>http://api.citybik.es/nice-ride.json</Url>
    <Latitude>44.983334</Latitude>
    <Longitude>-93.266669</Longitude>
    <CacheHack>0</CacheHack>
    <EndPointStatus>1</EndPointStatus>
  </BikeShare>
  <BikeShare>
    <Vendor>CityBikes</Vendor>
    <City>Toronto, ON</City>
    <Country>Canada</Country>
    <Url>http://api.citybik.es/bixi-toronto.json</Url>
    <Latitude>43.653226</Latitude>
    <Longitude>-79.383184</Longitude>
    <CacheHack>0</CacheHack>
    <EndPointStatus>1</EndPointStatus>
  </BikeShare>
  <BikeShare>
    <Vendor>CityBikes</Vendor>
    <City>Chicago, IL</City>
    <Country>United States</Country>
    <Url>http://api.citybik.es/divvy.json</Url>
    <Latitude>41.878113</Latitude>
    <Longitude>-87.629798</Longitude>
    <CacheHack>0</CacheHack>
    <EndPointStatus>1</EndPointStatus>
  </BikeShare>
  <BikeShare>
    <Vendor>CityBikes</Vendor>
    <City>New York, NY</City>
    <Country>United States</Country>
    <Url>http://api.citybik.es/citi-bike-nyc.json</Url>
    <Latitude>40.714352</Latitude>
    <Longitude>-74.005973</Longitude>
    <CacheHack>0</CacheHack>
    <EndPointStatus>1</EndPointStatus>
  </BikeShare>
  <BikeShare>
    <Vendor>CityBikes</Vendor>
    <City>San Francisco Bay Area, CA</City>
    <Country>United States</Country>
    <Url>http://api.citybik.es/bay-area-bike-share.json</Url>
    <Latitude>37.714145</Latitude>
    <Longitude>-122.25</Longitude>
    <CacheHack>0</CacheHack>
    <EndPointStatus>1</EndPointStatus>
  </BikeShare>
  <BikeShare>
    <Vendor>CityBikes</Vendor>
    <City>Alba</City>
    <Country>Italy</Country>
    <Url>http://api.citybik.es/alba.json</Url>
    <Latitude>44.716667</Latitude>
    <Longitude>8.083333</Longitude>
    <CacheHack>0</CacheHack>
    <EndPointStatus>1</EndPointStatus>
  </BikeShare>
  <BikeShare>
    <Vendor>CityBikes</Vendor>
    <City>Andria</City>
    <Country>Italy</Country>
    <Url>http://api.citybik.es/andria.json</Url>
    <Latitude>41.231667</Latitude>
    <Longitude>16.308333</Longitude>
    <CacheHack>0</CacheHack>
    <EndPointStatus>1</EndPointStatus>
  </BikeShare>
  <BikeShare>
    <Vendor>CityBikes</Vendor>
    <City>Bari</City>
    <Country>Italy</Country>
    <Url>http://api.citybik.es/bariinbici.json</Url>
    <Latitude>41.125278</Latitude>
    <Longitude>16.866667</Longitude>
    <CacheHack>0</CacheHack>
    <EndPointStatus>1</EndPointStatus>
  </BikeShare>
  <BikeShare>
    <Vendor>CityBikes</Vendor>
    <City>Bassano del Grappa</City>
    <Country>Italy</Country>
    <Url>http://api.citybik.es/bassanodelgrappa.json</Url>
    <Latitude>45.768611</Latitude>
    <Longitude>11.736667</Longitude>
    <CacheHack>0</CacheHack>
    <EndPointStatus>1</EndPointStatus>
  </BikeShare>
  <BikeShare>
    <Vendor>CityBikes</Vendor>
    <City>Bra</City>
    <Country>Italy</Country>
    <Url>http://api.citybik.es/bra.json</Url>
    <Latitude>44.694224</Latitude>
    <Longitude>7.854795</Longitude>
    <CacheHack>0</CacheHack>
    <EndPointStatus>1</EndPointStatus>
  </BikeShare>
  <BikeShare>
    <Vendor>CityBikes</Vendor>
    <City>Cagliari</City>
    <Country>Italy</Country>
    <Url>http://api.citybik.es/cagliari.json</Url>
    <Latitude>39.220817</Latitude>
    <Longitude>9.121399</Longitude>
    <CacheHack>0</CacheHack>
    <EndPointStatus>1</EndPointStatus>
  </BikeShare>
  <BikeShare>
    <Vendor>CityBikes</Vendor>
    <City>Cantu'</City>
    <Country>Italy</Country>
    <Url>http://api.citybik.es/biciamo.json</Url>
    <Latitude>45.73626</Latitude>
    <Longitude>9.12569</Longitude>
    <CacheHack>0</CacheHack>
    <EndPointStatus>1</EndPointStatus>
  </BikeShare>
  <BikeShare>
    <Vendor>CityBikes</Vendor>
    <City>Casalmaggiore</City>
    <Country>Italy</Country>
    <Url>http://api.citybik.es/casalmaggiore.json</Url>
    <Latitude>44.983499</Latitude>
    <Longitude>10.419245</Longitude>
    <CacheHack>0</CacheHack>
    <EndPointStatus>1</EndPointStatus>
  </BikeShare>
  <BikeShare>
    <Vendor>CityBikes</Vendor>
    <City>Santa Maria Maggiore - Malesco - Villette</City>
    <Country>Italy</Country>
    <Url>http://api.citybik.es/ossola.json</Url>
    <Latitude>46.127196</Latitude>
    <Longitude>8.499169</Longitude>
    <CacheHack>0</CacheHack>
    <EndPointStatus>1</EndPointStatus>
  </BikeShare>
  <BikeShare>
    <Vendor>CityBikes</Vendor>
    <City>Jesi</City>
    <Country>Italy</Country>
    <Url>http://api.citybik.es/jesinbici.json</Url>
    <Latitude>43.522601</Latitude>
    <Longitude>13.244448</Longitude>
    <CacheHack>0</CacheHack>
    <EndPointStatus>1</EndPointStatus>
  </BikeShare>
  <BikeShare>
    <Vendor>CityBikes</Vendor>
    <City>Lecce</City>
    <Country>Italy</Country>
    <Url>http://api.citybik.es/lecce.json</Url>
    <Latitude>40.348703</Latitude>
    <Longitude>18.173103</Longitude>
    <CacheHack>0</CacheHack>
    <EndPointStatus>1</EndPointStatus>
  </BikeShare>
  <BikeShare>
    <Vendor>CityBikes</Vendor>
    <City>Genova</City>
    <Country>Italy</Country>
    <Url>http://api.citybik.es/mobike.json</Url>
    <Latitude>44.403128</Latitude>
    <Longitude>8.932915</Longitude>
    <CacheHack>0</CacheHack>
    <EndPointStatus>1</EndPointStatus>
  </BikeShare>
  <BikeShare>
    <Vendor>CityBikes</Vendor>
    <City>Novi Ligure</City>
    <Country>Italy</Country>
    <Url>http://api.citybik.es/noviligure.json</Url>
    <Latitude>44.762004</Latitude>
    <Longitude>8.785895</Longitude>
    <CacheHack>0</CacheHack>
    <EndPointStatus>1</EndPointStatus>
  </BikeShare>
  <BikeShare>
    <Vendor>CityBikes</Vendor>
    <City>Oderzo</City>
    <Country>Italy</Country>
    <Url>http://api.citybik.es/oderzo.json</Url>
    <Latitude>45.779764</Latitude>
    <Longitude>12.497311</Longitude>
    <CacheHack>0</CacheHack>
    <EndPointStatus>1</EndPointStatus>
  </BikeShare>
  <BikeShare>
    <Vendor>CityBikes</Vendor>
    <City>Pamplona</City>
    <Country>Spain</Country>
    <Url>http://api.citybik.es/nbici.json</Url>
    <Latitude>42.811663</Latitude>
    <Longitude>-1.648265</Longitude>
    <CacheHack>0</CacheHack>
    <EndPointStatus>1</EndPointStatus>
  </BikeShare>
  <BikeShare>
    <Vendor>CityBikes</Vendor>
    <City>Chivasso</City>
    <Country>Italy</Country>
    <Url>http://api.citybik.es/chivasso.json</Url>
    <Latitude>45.189765</Latitude>
    <Longitude>7.888935</Longitude>
    <CacheHack>0</CacheHack>
    <EndPointStatus>1</EndPointStatus>
  </BikeShare>
  <BikeShare>
    <Vendor>CityBikes</Vendor>
    <City>Pistoia</City>
    <Country>Italy</Country>
    <Url>http://api.citybik.es/pistoiainbici.json</Url>
    <Latitude>43.930347</Latitude>
    <Longitude>10.907858</Longitude>
    <CacheHack>0</CacheHack>
    <EndPointStatus>1</EndPointStatus>
  </BikeShare>
  <BikeShare>
    <Vendor>CityBikes</Vendor>
    <City>Pontedera</City>
    <Country>Italy</Country>
    <Url>http://api.citybik.es/pontedera.json</Url>
    <Latitude>43.662515</Latitude>
    <Longitude>10.636358</Longitude>
    <CacheHack>0</CacheHack>
    <EndPointStatus>1</EndPointStatus>
  </BikeShare>
  <BikeShare>
    <Vendor>CityBikes</Vendor>
    <City>Treviso</City>
    <Country>Italy</Country>
    <Url>http://api.citybik.es/treviso.json</Url>
    <Latitude>45.666901</Latitude>
    <Longitude>12.243039</Longitude>
    <CacheHack>0</CacheHack>
    <EndPointStatus>1</EndPointStatus>
  </BikeShare>
  <BikeShare>
    <Vendor>CityBikes</Vendor>
    <City>Mantova</City>
    <Country>Italy</Country>
    <Url>http://api.citybik.es/mantova.json</Url>
    <Latitude>45.15983</Latitude>
    <Longitude>10.793467</Longitude>
    <CacheHack>0</CacheHack>
    <EndPointStatus>1</EndPointStatus>
  </BikeShare>
  <BikeShare>
    <Vendor>CityBikes</Vendor>
    <City>Prato</City>
    <Country>Italy</Country>
    <Url>http://api.citybik.es/prato.json</Url>
    <Latitude>43.877704</Latitude>
    <Longitude>11.102228</Longitude>
    <CacheHack>0</CacheHack>
    <EndPointStatus>1</EndPointStatus>
  </BikeShare>
  <BikeShare>
    <Vendor>CityBikes</Vendor>
    <City>San Donà di Piave</City>
    <Country>Italy</Country>
    <Url>http://api.citybik.es/sandonadipiave.json</Url>
    <Latitude>45.633185</Latitude>
    <Longitude>12.565429</Longitude>
    <CacheHack>0</CacheHack>
    <EndPointStatus>1</EndPointStatus>
  </BikeShare>
  <BikeShare>
    <Vendor>CityBikes</Vendor>
    <City>Savona</City>
    <Country>Italy</Country>
    <Url>http://api.citybik.es/savona.json</Url>
    <Latitude>44.29756</Latitude>
    <Longitude>8.4645</Longitude>
    <CacheHack>0</CacheHack>
    <EndPointStatus>1</EndPointStatus>
  </BikeShare>
  <BikeShare>
    <Vendor>CityBikes</Vendor>
    <City>Settimo Torinese</City>
    <Country>Italy</Country>
    <Url>http://api.citybik.es/settimotorinese.json</Url>
    <Latitude>45.139586</Latitude>
    <Longitude>7.770978</Longitude>
    <CacheHack>0</CacheHack>
    <EndPointStatus>1</EndPointStatus>
  </BikeShare>
  <BikeShare>
    <Vendor>CityBikes</Vendor>
    <City>Sondrio</City>
    <Country>Italy</Country>
    <Url>http://api.citybik.es/sondrio.json</Url>
    <Latitude>46.169858</Latitude>
    <Longitude>9.878767</Longitude>
    <CacheHack>0</CacheHack>
    <EndPointStatus>1</EndPointStatus>
  </BikeShare>
  <BikeShare>
    <Vendor>CityBikes</Vendor>
    <City>Villorba</City>
    <Country>Italy</Country>
    <Url>http://api.citybik.es/villorba.json</Url>
    <Latitude>45.741122</Latitude>
    <Longitude>12.234384</Longitude>
    <CacheHack>0</CacheHack>
    <EndPointStatus>1</EndPointStatus>
  </BikeShare>
  <BikeShare>
    <Vendor>CityBikes</Vendor>
    <City>Roma</City>
    <Country>Italy</Country>
    <Url>http://api.citybik.es/roma-n-bike.json</Url>
    <Latitude>41.892916</Latitude>
    <Longitude>12.482519</Longitude>
    <CacheHack>0</CacheHack>
    <EndPointStatus>1</EndPointStatus>
  </BikeShare>
  <BikeShare>
    <Vendor>CityBikes</Vendor>
    <City>Miami Beach, FL</City>
    <Country>United States</Country>
    <Url>http://api.citybik.es/decobike-miami-beach.json</Url>
    <Latitude>25.790654</Latitude>
    <Longitude>-80.130045</Longitude>
    <CacheHack>0</CacheHack>
    <EndPointStatus>1</EndPointStatus>
  </BikeShare>
  <BikeShare>
    <Vendor>CityBikes</Vendor>
    <City>Long Beach, NY</City>
    <Country>United States</Country>
    <Url>http://api.citybik.es/decobike-long-beach.json</Url>
    <Latitude>40.588437</Latitude>
    <Longitude>-73.657907</Longitude>
    <CacheHack>0</CacheHack>
    <EndPointStatus>1</EndPointStatus>
  </BikeShare>
  <BikeShare>
    <Vendor>CityBikes</Vendor>
    <City>Santa MargherIT Ligure - Portofino - Camogli</City>
    <Country>Italy</Country>
    <Url>http://api.citybik.es/portofinoparkandbike.json</Url>
    <Latitude>44.335084</Latitude>
    <Longitude>9.211264</Longitude>
    <CacheHack>0</CacheHack>
    <EndPointStatus>1</EndPointStatus>
  </BikeShare>
  <BikeShare>
    <Vendor>CityBikes</Vendor>
    <City>Siracusa</City>
    <Country>Italy</Country>
    <Url>http://api.citybik.es/gobike.json</Url>
    <Latitude>37.075473</Latitude>
    <Longitude>15.286586</Longitude>
    <CacheHack>0</CacheHack>
    <EndPointStatus>1</EndPointStatus>
  </BikeShare>
  <BikeShare>
    <Vendor>CityBikes</Vendor>
    <City>Arezzo</City>
    <Country>Italy</Country>
    <Url>http://api.citybik.es/arbike.json</Url>
    <Latitude>43.473333</Latitude>
    <Longitude>11.87</Longitude>
    <CacheHack>0</CacheHack>
    <EndPointStatus>1</EndPointStatus>
  </BikeShare>
  <BikeShare>
    <Vendor>CityBikes</Vendor>
    <City>Ascoli Piceno</City>
    <Country>Italy</Country>
    <Url>http://api.citybik.es/ascolipiceno.json</Url>
    <Latitude>42.85</Latitude>
    <Longitude>13.583333</Longitude>
    <CacheHack>0</CacheHack>
    <EndPointStatus>1</EndPointStatus>
  </BikeShare>
  <BikeShare>
    <Vendor>CityBikes</Vendor>
    <City>Bergamo</City>
    <Country>Italy</Country>
    <Url>http://api.citybik.es/bigi.json</Url>
    <Latitude>45.695</Latitude>
    <Longitude>9.67</Longitude>
    <CacheHack>0</CacheHack>
    <EndPointStatus>1</EndPointStatus>
  </BikeShare>
  <BikeShare>
    <Vendor>CityBikes</Vendor>
    <City>Vercelli</City>
    <Country>Italy</Country>
    <Url>http://api.citybik.es/vercelli.json</Url>
    <Latitude>45.320227</Latitude>
    <Longitude>8.418573</Longitude>
    <CacheHack>0</CacheHack>
    <EndPointStatus>1</EndPointStatus>
  </BikeShare>
  <BikeShare>
    <Vendor>CityBikes</Vendor>
    <City>Cernusco sul Naviglio - Pioltello - Carugate</City>
    <Country>Italy</Country>
    <Url>http://api.citybik.es/meglioinbici.json</Url>
    <Latitude>45.520541</Latitude>
    <Longitude>9.341984</Longitude>
    <CacheHack>0</CacheHack>
    <EndPointStatus>1</EndPointStatus>
  </BikeShare>
  <BikeShare>
    <Vendor>CityBikes</Vendor>
    <City>Busto Arsizio</City>
    <Country>Italy</Country>
    <Url>http://api.citybik.es/biciinbusto.json</Url>
    <Latitude>45.610555</Latitude>
    <Longitude>8.852062</Longitude>
    <CacheHack>0</CacheHack>
    <EndPointStatus>1</EndPointStatus>
  </BikeShare>
  <BikeShare>
    <Vendor>CityBikes</Vendor>
    <City>Cuneo</City>
    <Country>Italy</Country>
    <Url>http://api.citybik.es/cuneo.json</Url>
    <Latitude>44.384238</Latitude>
    <Longitude>7.541428</Longitude>
    <CacheHack>0</CacheHack>
    <EndPointStatus>1</EndPointStatus>
  </BikeShare>
  <BikeShare>
    <Vendor>CityBikes</Vendor>
    <City>Fossano</City>
    <Country>Italy</Country>
    <Url>http://api.citybik.es/fossano.json</Url>
    <Latitude>44.550723</Latitude>
    <Longitude>7.7215</Longitude>
    <CacheHack>0</CacheHack>
    <EndPointStatus>1</EndPointStatus>
  </BikeShare>
  <BikeShare>
    <Vendor>CityBikes</Vendor>
    <City>Frosinone</City>
    <Country>Italy</Country>
    <Url>http://api.citybik.es/freebikesharing.json</Url>
    <Latitude>41.645081</Latitude>
    <Longitude>13.342123</Longitude>
    <CacheHack>0</CacheHack>
    <EndPointStatus>1</EndPointStatus>
  </BikeShare>
  <BikeShare>
    <Vendor>CityBikes</Vendor>
    <City>Bath</City>
    <Country>United Kingdom</Country>
    <Url>http://api.citybik.es/bikeinbath.json</Url>
    <Latitude>51.381531</Latitude>
    <Longitude>-2.362404</Longitude>
    <CacheHack>0</CacheHack>
    <EndPointStatus>1</EndPointStatus>
  </BikeShare>
  <BikeShare>
    <Vendor>CityBikes</Vendor>
    <City>Lecco</City>
    <Country>Italy</Country>
    <Url>http://api.citybik.es/lecco.json</Url>
    <Latitude>45.853554</Latitude>
    <Longitude>9.392366</Longitude>
    <CacheHack>0</CacheHack>
    <EndPointStatus>1</EndPointStatus>
  </BikeShare>
  <BikeShare>
    <Vendor>CityBikes</Vendor>
    <City>Sestri Levante - Lavagna</City>
    <Country>Italy</Country>
    <Url>http://api.citybik.es/tigullionbike.json</Url>
    <Latitude>44.272554</Latitude>
    <Longitude>9.395714</Longitude>
    <CacheHack>0</CacheHack>
    <EndPointStatus>1</EndPointStatus>
  </BikeShare>
  <BikeShare>
    <Vendor>CityBikes</Vendor>
    <City>Manerba del Garda</City>
    <Country>Italy</Country>
    <Url>http://api.citybik.es/manerbainbici.json</Url>
    <Latitude>45.561179</Latitude>
    <Longitude>10.559406</Longitude>
    <CacheHack>0</CacheHack>
    <EndPointStatus>1</EndPointStatus>
  </BikeShare>
  <BikeShare>
    <Vendor>CityBikes</Vendor>
    <City>Marciana Marina</City>
    <Country>Italy</Country>
    <Url>http://api.citybik.es/marebici.json</Url>
    <Latitude>42.805855</Latitude>
    <Longitude>10.196514</Longitude>
    <CacheHack>0</CacheHack>
    <EndPointStatus>1</EndPointStatus>
  </BikeShare>
  <BikeShare>
    <Vendor>CityBikes</Vendor>
    <City>Novara</City>
    <Country>Italy</Country>
    <Url>http://api.citybik.es/novara.json</Url>
    <Latitude>45.44574</Latitude>
    <Longitude>8.622165</Longitude>
    <CacheHack>0</CacheHack>
    <EndPointStatus>1</EndPointStatus>
  </BikeShare>
  <BikeShare>
    <Vendor>CityBikes</Vendor>
    <City>Padova</City>
    <Country>Italy</Country>
    <Url>http://api.citybik.es/goodbike.json</Url>
    <Latitude>45.406434</Latitude>
    <Longitude>11.876761</Longitude>
    <CacheHack>0</CacheHack>
    <EndPointStatus>1</EndPointStatus>
  </BikeShare>
  <BikeShare>
    <Vendor>CityBikes</Vendor>
    <City>Biella</City>
    <Country>Italy</Country>
    <Url>http://api.citybik.es/biella.json</Url>
    <Latitude>45.5775</Latitude>
    <Longitude>8.051111</Longitude>
    <CacheHack>0</CacheHack>
    <EndPointStatus>1</EndPointStatus>
  </BikeShare>
  <BikeShare>
    <Vendor>CityBikes</Vendor>
    <City>Ischitella – Peschici – Rodi Garganico – Vico del Gargano</City>
    <Country>Italy</Country>
    <Url>http://api.citybik.es/parkinbici.json</Url>
    <Latitude>41.833502</Latitude>
    <Longitude>16.037292</Longitude>
    <CacheHack>0</CacheHack>
    <EndPointStatus>1</EndPointStatus>
  </BikeShare>
  <BikeShare>
    <Vendor>CityBikes</Vendor>
    <City>Parma</City>
    <Country>Italy</Country>
    <Url>http://api.citybik.es/parma.json</Url>
    <Latitude>44.801485</Latitude>
    <Longitude>10.327903</Longitude>
    <CacheHack>0</CacheHack>
    <EndPointStatus>1</EndPointStatus>
  </BikeShare>
  <BikeShare>
    <Vendor>CityBikes</Vendor>
    <City>Piacenza</City>
    <Country>Italy</Country>
    <Url>http://api.citybik.es/piacenza.json</Url>
    <Latitude>45.047375</Latitude>
    <Longitude>9.686581</Longitude>
    <CacheHack>0</CacheHack>
    <EndPointStatus>1</EndPointStatus>
  </BikeShare>
  <BikeShare>
    <Vendor>CityBikes</Vendor>
    <City>Pinerolo</City>
    <Country>Italy</Country>
    <Url>http://api.citybik.es/pinerolo.json</Url>
    <Latitude>44.885025</Latitude>
    <Longitude>7.349995</Longitude>
    <CacheHack>0</CacheHack>
    <EndPointStatus>1</EndPointStatus>
  </BikeShare>
  <BikeShare>
    <Vendor>CityBikes</Vendor>
    <City>Reggio Emilia</City>
    <Country>Italy</Country>
    <Url>http://api.citybik.es/reggioemilia.json</Url>
    <Latitude>44.698993</Latitude>
    <Longitude>10.629685</Longitude>
    <CacheHack>0</CacheHack>
    <EndPointStatus>1</EndPointStatus>
  </BikeShare>
  <BikeShare>
    <Vendor>CityBikes</Vendor>
    <City>Rimini</City>
    <Country>Italy</Country>
    <Url>http://api.citybik.es/rimini.json</Url>
    <Latitude>44.057081</Latitude>
    <Longitude>12.5646</Longitude>
    <CacheHack>0</CacheHack>
    <EndPointStatus>1</EndPointStatus>
  </BikeShare>
  <BikeShare>
    <Vendor>CityBikes</Vendor>
    <City>Saluzzo</City>
    <Country>Italy</Country>
    <Url>http://api.citybik.es/saluzzo.json</Url>
    <Latitude>44.64454</Latitude>
    <Longitude>7.492735</Longitude>
    <CacheHack>0</CacheHack>
    <EndPointStatus>1</EndPointStatus>
  </BikeShare>
  <BikeShare>
    <Vendor>CityBikes</Vendor>
    <City>Schio</City>
    <Country>Italy</Country>
    <Url>http://api.citybik.es/bicischio.json</Url>
    <Latitude>45.717051</Latitude>
    <Longitude>11.35977</Longitude>
    <CacheHack>0</CacheHack>
    <EndPointStatus>1</EndPointStatus>
  </BikeShare>
  <BikeShare>
    <Vendor>CityBikes</Vendor>
    <City>Savigliano</City>
    <Country>Italy</Country>
    <Url>http://api.citybik.es/savigliano.json</Url>
    <Latitude>44.647032</Latitude>
    <Longitude>7.662463</Longitude>
    <CacheHack>0</CacheHack>
    <EndPointStatus>1</EndPointStatus>
  </BikeShare>
  <BikeShare>
    <Vendor>CityBikes</Vendor>
    <City>Tirano</City>
    <Country>Italy</Country>
    <Url>http://api.citybik.es/tiranoinbici.json</Url>
    <Latitude>46.216168</Latitude>
    <Longitude>10.169605</Longitude>
    <CacheHack>0</CacheHack>
    <EndPointStatus>1</EndPointStatus>
  </BikeShare>
  <BikeShare>
    <Vendor>CityBikes</Vendor>
    <City>Udine</City>
    <Country>Italy</Country>
    <Url>http://api.citybik.es/udine.json</Url>
    <Latitude>46.071066</Latitude>
    <Longitude>13.234579</Longitude>
    <CacheHack>0</CacheHack>
    <EndPointStatus>1</EndPointStatus>
  </BikeShare>
  <BikeShare>
    <Vendor>CityBikes</Vendor>
    <City>Como</City>
    <Country>Italy</Country>
    <Url>http://api.citybik.es/bicico.json</Url>
    <Latitude>45.808059</Latitude>
    <Longitude>9.085176</Longitude>
    <CacheHack>0</CacheHack>
    <EndPointStatus>1</EndPointStatus>
  </BikeShare>
  <BikeShare>
    <Vendor>CityBikes</Vendor>
    <City>La Spezia</City>
    <Country>Italy</Country>
    <Url>http://api.citybik.es/speziainbici.json</Url>
    <Latitude>44.10245</Latitude>
    <Longitude>9.824082</Longitude>
    <CacheHack>0</CacheHack>
    <EndPointStatus>1</EndPointStatus>
  </BikeShare>
  <BikeShare>
    <Vendor>CityBikes</Vendor>
    <City>Pavia</City>
    <Country>Italy</Country>
    <Url>http://api.citybik.es/pavia.json</Url>
    <Latitude>45.184724</Latitude>
    <Longitude>9.158206</Longitude>
    <CacheHack>0</CacheHack>
    <EndPointStatus>1</EndPointStatus>
  </BikeShare>
  <BikeShare>
    <Vendor>CityBikes</Vendor>
    <City>Torino</City>
    <Country>Italy</Country>
    <Url>http://api.citybik.es/to-bike.json</Url>
    <Latitude>45.070982</Latitude>
    <Longitude>7.685676</Longitude>
    <CacheHack>0</CacheHack>
    <EndPointStatus>1</EndPointStatus>
  </BikeShare>
  <BikeShare>
    <Vendor>CityBikes</Vendor>
    <City>Venezia</City>
    <Country>Italy</Country>
    <Url>http://api.citybik.es/venezia.json</Url>
    <Latitude>45.440847</Latitude>
    <Longitude>12.315515</Longitude>
    <CacheHack>0</CacheHack>
    <EndPointStatus>1</EndPointStatus>
  </BikeShare>
  <BikeShare>
    <Vendor>CityBikes</Vendor>
    <City>Perugia</City>
    <Country>Italy</Country>
    <Url>http://api.citybik.es/biciperugia.json</Url>
    <Latitude>43.110716</Latitude>
    <Longitude>12.390827</Longitude>
    <CacheHack>0</CacheHack>
    <EndPointStatus>1</EndPointStatus>
  </BikeShare>
  <BikeShare>
    <Vendor>CityBikes</Vendor>
    <City>Boulder, CO</City>
    <Country>United States</Country>
    <Url>http://api.citybik.es/boulder.json</Url>
    <Latitude>40.014985</Latitude>
    <Longitude>-105.270545</Longitude>
    <CacheHack>0</CacheHack>
    <EndPointStatus>1</EndPointStatus>
  </BikeShare>
  <BikeShare>
    <Vendor>CityBikes</Vendor>
    <City>Broward, FL</City>
    <Country>United States</Country>
    <Url>http://api.citybik.es/broward.json</Url>
    <Latitude>26.122308</Latitude>
    <Longitude>-80.143378</Longitude>
    <CacheHack>0</CacheHack>
    <EndPointStatus>1</EndPointStatus>
  </BikeShare>
  <BikeShare>
    <Vendor>CityBikes</Vendor>
    <City>Charlotte, NC</City>
    <Country>United States</Country>
    <Url>http://api.citybik.es/charlotte.json</Url>
    <Latitude>35.227086</Latitude>
    <Longitude>-80.843126</Longitude>
    <CacheHack>0</CacheHack>
    <EndPointStatus>1</EndPointStatus>
  </BikeShare>
  <BikeShare>
    <Vendor>CityBikes</Vendor>
    <City>Denver, CO</City>
    <Country>United States</Country>
    <Url>http://api.citybik.es/denver.json</Url>
    <Latitude>39.737567</Latitude>
    <Longitude>-104.984717</Longitude>
    <CacheHack>0</CacheHack>
    <EndPointStatus>1</EndPointStatus>
  </BikeShare>
  <BikeShare>
    <Vendor>CityBikes</Vendor>
    <City>Des Moines, IA</City>
    <Country>United States</Country>
    <Url>http://api.citybik.es/desmoines.json</Url>
    <Latitude>41.600544</Latitude>
    <Longitude>-93.609106</Longitude>
    <CacheHack>0</CacheHack>
    <EndPointStatus>1</EndPointStatus>
  </BikeShare>
  <BikeShare>
    <Vendor>CityBikes</Vendor>
    <City>Terni</City>
    <Country>Italy</Country>
    <Url>http://api.citybik.es/Terni.json</Url>
    <Latitude>42.563616</Latitude>
    <Longitude>12.64266</Longitude>
    <CacheHack>0</CacheHack>
    <EndPointStatus>1</EndPointStatus>
  </BikeShare>
  <BikeShare>
    <Vendor>CityBikes</Vendor>
    <City>Ustica</City>
    <Country>Italy</Country>
    <Url>http://api.citybik.es/ustica.json</Url>
    <Latitude>38.703117</Latitude>
    <Longitude>13.168267</Longitude>
    <CacheHack>0</CacheHack>
    <EndPointStatus>1</EndPointStatus>
  </BikeShare>
  <BikeShare>
    <Vendor>CityBikes</Vendor>
    <City>Fort Worth, TX</City>
    <Country>United States</Country>
    <Url>http://api.citybik.es/fortworth.json</Url>
    <Latitude>32.725409</Latitude>
    <Longitude>-97.320849</Longitude>
    <CacheHack>0</CacheHack>
    <EndPointStatus>1</EndPointStatus>
  </BikeShare>
  <BikeShare>
    <Vendor>CityBikes</Vendor>
    <City>Kansas City, MO</City>
    <Country>United States</Country>
    <Url>http://api.citybik.es/kansascity.json</Url>
    <Latitude>39.099726</Latitude>
    <Longitude>-94.578566</Longitude>
    <CacheHack>0</CacheHack>
    <EndPointStatus>1</EndPointStatus>
  </BikeShare>
  <BikeShare>
    <Vendor>CityBikes</Vendor>
    <City>Salt Lake City, UT</City>
    <Country>United States</Country>
    <Url>http://api.citybik.es/greenbikeslc.json</Url>
    <Latitude>40.760779</Latitude>
    <Longitude>-111.891047</Longitude>
    <CacheHack>0</CacheHack>
    <EndPointStatus>1</EndPointStatus>
  </BikeShare>
  <BikeShare>
    <Vendor>CityBikes</Vendor>
    <City>Greenville, SC</City>
    <Country>United States</Country>
    <Url>http://api.citybik.es/greenville.json</Url>
    <Latitude>34.852617</Latitude>
    <Longitude>-82.39401</Longitude>
    <CacheHack>0</CacheHack>
    <EndPointStatus>1</EndPointStatus>
  </BikeShare>
  <BikeShare>
    <Vendor>CityBikes</Vendor>
    <City>Kailua, HI</City>
    <Country>United States</Country>
    <Url>http://api.citybik.es/hawaii.json</Url>
    <Latitude>21.402222</Latitude>
    <Longitude>-157.739444</Longitude>
    <CacheHack>0</CacheHack>
    <EndPointStatus>1</EndPointStatus>
  </BikeShare>
  <BikeShare>
    <Vendor>CityBikes</Vendor>
    <City>Houston, TX</City>
    <Country>United States</Country>
    <Url>http://api.citybik.es/houston.json</Url>
    <Latitude>29.760192</Latitude>
    <Longitude>-95.369389</Longitude>
    <CacheHack>0</CacheHack>
    <EndPointStatus>1</EndPointStatus>
  </BikeShare>
  <BikeShare>
    <Vendor>CityBikes</Vendor>
    <City>Madison, WI</City>
    <Country>United States</Country>
    <Url>http://api.citybik.es/madison.json</Url>
    <Latitude>43.073051</Latitude>
    <Longitude>-89.40123</Longitude>
    <CacheHack>0</CacheHack>
    <EndPointStatus>1</EndPointStatus>
  </BikeShare>
  <BikeShare>
    <Vendor>CityBikes</Vendor>
    <City>Nashville, TN</City>
    <Country>United States</Country>
    <Url>http://api.citybik.es/nashville.json</Url>
    <Latitude>36.166666</Latitude>
    <Longitude>-86.783333</Longitude>
    <CacheHack>0</CacheHack>
    <EndPointStatus>1</EndPointStatus>
  </BikeShare>
  <BikeShare>
    <Vendor>CityBikes</Vendor>
    <City>Omaha, NE</City>
    <Country>United States</Country>
    <Url>http://api.citybik.es/omaha.json</Url>
    <Latitude>41.252363</Latitude>
    <Longitude>-95.997988</Longitude>
    <CacheHack>0</CacheHack>
    <EndPointStatus>1</EndPointStatus>
  </BikeShare>
  <BikeShare>
    <Vendor>CityBikes</Vendor>
    <City>San Antonio, TX</City>
    <Country>United States</Country>
    <Url>http://api.citybik.es/sanantonio.json</Url>
    <Latitude>29.424121</Latitude>
    <Longitude>-98.493628</Longitude>
    <CacheHack>0</CacheHack>
    <EndPointStatus>1</EndPointStatus>
  </BikeShare>
  <BikeShare>
    <Vendor>CityBikes</Vendor>
    <City>Spartanburg, SC</City>
    <Country>United States</Country>
    <Url>http://api.citybik.es/spartanburg.json</Url>
    <Latitude>34.949567</Latitude>
    <Longitude>-81.932048</Longitude>
    <CacheHack>0</CacheHack>
    <EndPointStatus>1</EndPointStatus>
  </BikeShare>
  <BikeShare>
    <Vendor>CityBikes</Vendor>
    <City>Albacete</City>
    <Country>Spain</Country>
    <Url>http://api.citybik.es/onroll-albacete.json</Url>
    <Latitude>38.98913</Latitude>
    <Longitude>-1.858485</Longitude>
    <CacheHack>0</CacheHack>
    <EndPointStatus>1</EndPointStatus>
  </BikeShare>
  <BikeShare>
    <Vendor>CityBikes</Vendor>
    <City>Alhama de Murcia</City>
    <Country>Spain</Country>
    <Url>http://api.citybik.es/onroll-alhama-de-murcia.json</Url>
    <Latitude>37.849831</Latitude>
    <Longitude>-1.424891</Longitude>
    <CacheHack>0</CacheHack>
    <EndPointStatus>1</EndPointStatus>
  </BikeShare>
  <BikeShare>
    <Vendor>CityBikes</Vendor>
    <City>Lille</City>
    <Country>France</Country>
    <Url>http://api.citybik.es/vlille.json</Url>
    <Latitude>50.62925</Latitude>
    <Longitude>3.057256</Longitude>
    <CacheHack>0</CacheHack>
    <EndPointStatus>1</EndPointStatus>
  </BikeShare>
  <BikeShare>
    <Vendor>CityBikes</Vendor>
    <City>A Rúa</City>
    <Country>Spain</Country>
    <Url>http://api.citybik.es/onroll-a-rua.json</Url>
    <Latitude>42.392049</Latitude>
    <Longitude>-7.114634</Longitude>
    <CacheHack>0</CacheHack>
    <EndPointStatus>1</EndPointStatus>
  </BikeShare>
  <BikeShare>
    <Vendor>CityBikes</Vendor>
    <City>Aranda de Duero</City>
    <Country>Spain</Country>
    <Url>http://api.citybik.es/onroll-aranda-de-duero.json</Url>
    <Latitude>41.667601</Latitude>
    <Longitude>-3.689526</Longitude>
    <CacheHack>0</CacheHack>
    <EndPointStatus>1</EndPointStatus>
  </BikeShare>
  <BikeShare>
    <Vendor>CityBikes</Vendor>
    <City>Aranjuez</City>
    <Country>Spain</Country>
    <Url>http://api.citybik.es/onroll-aranjuez.json</Url>
    <Latitude>40.03097</Latitude>
    <Longitude>-3.605742</Longitude>
    <CacheHack>0</CacheHack>
    <EndPointStatus>1</EndPointStatus>
  </BikeShare>
  <BikeShare>
    <Vendor>CityBikes</Vendor>
    <City>Almuñécar</City>
    <Country>Spain</Country>
    <Url>http://api.citybik.es/onroll-almunecar.json</Url>
    <Latitude>36.735789</Latitude>
    <Longitude>-3.688828</Longitude>
    <CacheHack>0</CacheHack>
    <EndPointStatus>1</EndPointStatus>
  </BikeShare>
  <BikeShare>
    <Vendor>CityBikes</Vendor>
    <City>Antequera</City>
    <Country>Spain</Country>
    <Url>http://api.citybik.es/onroll-antequera.json</Url>
    <Latitude>37.018427</Latitude>
    <Longitude>-4.563775</Longitude>
    <CacheHack>0</CacheHack>
    <EndPointStatus>1</EndPointStatus>
  </BikeShare>
  <BikeShare>
    <Vendor>CityBikes</Vendor>
    <City>Badajoz</City>
    <Country>Spain</Country>
    <Url>http://api.citybik.es/onroll-badajoz.json</Url>
    <Latitude>38.873627</Latitude>
    <Longitude>-6.99451</Longitude>
    <CacheHack>0</CacheHack>
    <EndPointStatus>1</EndPointStatus>
  </BikeShare>
  <BikeShare>
    <Vendor>CityBikes</Vendor>
    <City>Benidorm</City>
    <Country>Spain</Country>
    <Url>http://api.citybik.es/onroll-benidorm.json</Url>
    <Latitude>38.541251</Latitude>
    <Longitude>-0.126808</Longitude>
    <CacheHack>0</CacheHack>
    <EndPointStatus>1</EndPointStatus>
  </BikeShare>
  <BikeShare>
    <Vendor>CityBikes</Vendor>
    <City>Blanca</City>
    <Country>Spain</Country>
    <Url>http://api.citybik.es/onroll-blanca.json</Url>
    <Latitude>38.178195</Latitude>
    <Longitude>-1.372402</Longitude>
    <CacheHack>0</CacheHack>
    <EndPointStatus>1</EndPointStatus>
  </BikeShare>
  <BikeShare>
    <Vendor>CityBikes</Vendor>
    <City>Ciudad Real</City>
    <Country>Spain</Country>
    <Url>http://api.citybik.es/onroll-ciudad-real.json</Url>
    <Latitude>38.982864</Latitude>
    <Longitude>-3.927068</Longitude>
    <CacheHack>0</CacheHack>
    <EndPointStatus>1</EndPointStatus>
  </BikeShare>
  <BikeShare>
    <Vendor>CityBikes</Vendor>
    <City>Baeza</City>
    <Country>Spain</Country>
    <Url>http://api.citybik.es/onroll-baeza.json</Url>
    <Latitude>37.99537</Latitude>
    <Longitude>-3.468248</Longitude>
    <CacheHack>0</CacheHack>
    <EndPointStatus>1</EndPointStatus>
  </BikeShare>
  <BikeShare>
    <Vendor>CityBikes</Vendor>
    <City>El Campello</City>
    <Country>Spain</Country>
    <Url>http://api.citybik.es/onroll-el-campello.json</Url>
    <Latitude>38.419616</Latitude>
    <Longitude>-0.398388</Longitude>
    <CacheHack>0</CacheHack>
    <EndPointStatus>1</EndPointStatus>
  </BikeShare>
  <BikeShare>
    <Vendor>CityBikes</Vendor>
    <City>Elche</City>
    <Country>Spain</Country>
    <Url>http://api.citybik.es/onroll-elche.json</Url>
    <Latitude>38.2668</Latitude>
    <Longitude>-0.696217</Longitude>
    <CacheHack>0</CacheHack>
    <EndPointStatus>1</EndPointStatus>
  </BikeShare>
  <BikeShare>
    <Vendor>CityBikes</Vendor>
    <City>Jaén</City>
    <Country>Spain</Country>
    <Url>http://api.citybik.es/onroll-jaen.json</Url>
    <Latitude>37.777738</Latitude>
    <Longitude>-3.790758</Longitude>
    <CacheHack>0</CacheHack>
    <EndPointStatus>1</EndPointStatus>
  </BikeShare>
  <BikeShare>
    <Vendor>CityBikes</Vendor>
    <City>Cieza</City>
    <Country>Spain</Country>
    <Url>http://api.citybik.es/onroll-cieza.json</Url>
    <Latitude>38.239139</Latitude>
    <Longitude>-1.417262</Longitude>
    <CacheHack>0</CacheHack>
    <EndPointStatus>1</EndPointStatus>
  </BikeShare>
  <BikeShare>
    <Vendor>CityBikes</Vendor>
    <City>Lalín</City>
    <Country>Spain</Country>
    <Url>http://api.citybik.es/onroll-lalin.json</Url>
    <Latitude>42.658626</Latitude>
    <Longitude>-8.114976</Longitude>
    <CacheHack>0</CacheHack>
    <EndPointStatus>1</EndPointStatus>
  </BikeShare>
  <BikeShare>
    <Vendor>CityBikes</Vendor>
    <City>Las Palmas de Gran Canaria</City>
    <Country>Spain</Country>
    <Url>http://api.citybik.es/onroll-las-palmas.json</Url>
    <Latitude>28.124302</Latitude>
    <Longitude>-15.425994</Longitude>
    <CacheHack>0</CacheHack>
    <EndPointStatus>1</EndPointStatus>
  </BikeShare>
  <BikeShare>
    <Vendor>CityBikes</Vendor>
    <City>Montilla</City>
    <Country>Spain</Country>
    <Url>http://api.citybik.es/onroll-montilla.json</Url>
    <Latitude>37.584151</Latitude>
    <Longitude>-4.641359</Longitude>
    <CacheHack>0</CacheHack>
    <EndPointStatus>1</EndPointStatus>
  </BikeShare>
  <BikeShare>
    <Vendor>CityBikes</Vendor>
    <City>Don Benito - Villanueva</City>
    <Country>Spain</Country>
    <Url>http://api.citybik.es/onroll-don-benito-villanueva.json</Url>
    <Latitude>38.964699</Latitude>
    <Longitude>-5.829693</Longitude>
    <CacheHack>0</CacheHack>
    <EndPointStatus>1</EndPointStatus>
  </BikeShare>
  <BikeShare>
    <Vendor>CityBikes</Vendor>
    <City>Novelda</City>
    <Country>Spain</Country>
    <Url>http://api.citybik.es/onroll-novelda.json</Url>
    <Latitude>38.386447</Latitude>
    <Longitude>-0.767134</Longitude>
    <CacheHack>0</CacheHack>
    <EndPointStatus>1</EndPointStatus>
  </BikeShare>
  <BikeShare>
    <Vendor>CityBikes</Vendor>
    <City>O Barco</City>
    <Country>Spain</Country>
    <Url>http://api.citybik.es/onroll-o-barco.json</Url>
    <Latitude>42.413993</Latitude>
    <Longitude>-6.982913</Longitude>
    <CacheHack>0</CacheHack>
    <EndPointStatus>1</EndPointStatus>
  </BikeShare>
  <BikeShare>
    <Vendor>CityBikes</Vendor>
    <City>Guadalajara</City>
    <Country>Spain</Country>
    <Url>http://api.citybik.es/onroll-guadalajara.json</Url>
    <Latitude>40.633021</Latitude>
    <Longitude>-3.166097</Longitude>
    <CacheHack>0</CacheHack>
    <EndPointStatus>1</EndPointStatus>
  </BikeShare>
  <BikeShare>
    <Vendor>CityBikes</Vendor>
    <City>Paiporta</City>
    <Country>Spain</Country>
    <Url>http://api.citybik.es/onroll-paiporta.json</Url>
    <Latitude>39.427609</Latitude>
    <Longitude>-0.416876</Longitude>
    <CacheHack>0</CacheHack>
    <EndPointStatus>1</EndPointStatus>
  </BikeShare>
  <BikeShare>
    <Vendor>CityBikes</Vendor>
    <City>Palencia</City>
    <Country>Spain</Country>
    <Url>http://api.citybik.es/onroll-palencia.json</Url>
    <Latitude>42.005639</Latitude>
    <Longitude>-4.527022</Longitude>
    <CacheHack>0</CacheHack>
    <EndPointStatus>1</EndPointStatus>
  </BikeShare>
  <BikeShare>
    <Vendor>CityBikes</Vendor>
    <City>Pinto</City>
    <Country>Spain</Country>
    <Url>http://api.citybik.es/onroll-pinto.json</Url>
    <Latitude>40.245741</Latitude>
    <Longitude>-3.698611</Longitude>
    <CacheHack>0</CacheHack>
    <EndPointStatus>1</EndPointStatus>
  </BikeShare>
  <BikeShare>
    <Vendor>CityBikes</Vendor>
    <City>Puerto Lumbreras</City>
    <Country>Spain</Country>
    <Url>http://api.citybik.es/onroll-puerto-lumbreras.json</Url>
    <Latitude>37.556652</Latitude>
    <Longitude>-1.811508</Longitude>
    <CacheHack>0</CacheHack>
    <EndPointStatus>1</EndPointStatus>
  </BikeShare>
  <BikeShare>
    <Vendor>CityBikes</Vendor>
    <City>Mula</City>
    <Country>Spain</Country>
    <Url>http://api.citybik.es/onroll-mula.json</Url>
    <Latitude>38.040805</Latitude>
    <Longitude>-1.497451</Longitude>
    <CacheHack>0</CacheHack>
    <EndPointStatus>1</EndPointStatus>
  </BikeShare>
  <BikeShare>
    <Vendor>CityBikes</Vendor>
    <City>Puertollano</City>
    <Country>Spain</Country>
    <Url>http://api.citybik.es/onroll-puertollano.json</Url>
    <Latitude>38.691396</Latitude>
    <Longitude>-4.107794</Longitude>
    <CacheHack>0</CacheHack>
    <EndPointStatus>1</EndPointStatus>
  </BikeShare>
  <BikeShare>
    <Vendor>CityBikes</Vendor>
    <City>Redondela</City>
    <Country>Spain</Country>
    <Url>http://api.citybik.es/onroll-redondela.json</Url>
    <Latitude>42.299964</Latitude>
    <Longitude>-8.615428</Longitude>
    <CacheHack>0</CacheHack>
    <EndPointStatus>1</EndPointStatus>
  </BikeShare>
  <BikeShare>
    <Vendor>CityBikes</Vendor>
    <City>San Javier</City>
    <Country>Spain</Country>
    <Url>http://api.citybik.es/onroll-san-javier.json</Url>
    <Latitude>37.783704</Latitude>
    <Longitude>-0.808097</Longitude>
    <CacheHack>0</CacheHack>
    <EndPointStatus>1</EndPointStatus>
  </BikeShare>
  <BikeShare>
    <Vendor>CityBikes</Vendor>
    <City>San Pedro del Pinatar</City>
    <Country>Spain</Country>
    <Url>http://api.citybik.es/onroll-san-pedro.json</Url>
    <Latitude>37.827578</Latitude>
    <Longitude>-0.783944</Longitude>
    <CacheHack>0</CacheHack>
    <EndPointStatus>1</EndPointStatus>
  </BikeShare>
  <BikeShare>
    <Vendor>CityBikes</Vendor>
    <City>Sant Joan d'Alacant</City>
    <Country>Spain</Country>
    <Url>http://api.citybik.es/onroll-sant-joan.json</Url>
    <Latitude>38.399839</Latitude>
    <Longitude>-0.434522</Longitude>
    <CacheHack>0</CacheHack>
    <EndPointStatus>1</EndPointStatus>
  </BikeShare>
  <BikeShare>
    <Vendor>CityBikes</Vendor>
    <City>Priego de Córdoba</City>
    <Country>Spain</Country>
    <Url>http://api.citybik.es/onroll-priego-de-cordoba.json</Url>
    <Latitude>37.440517</Latitude>
    <Longitude>-4.201188</Longitude>
    <CacheHack>0</CacheHack>
    <EndPointStatus>1</EndPointStatus>
  </BikeShare>
  <BikeShare>
    <Vendor>CityBikes</Vendor>
    <City>Soria</City>
    <Country>Spain</Country>
    <Url>http://api.citybik.es/onroll-soria.json</Url>
    <Latitude>41.763653</Latitude>
    <Longitude>-2.467069</Longitude>
    <CacheHack>0</CacheHack>
    <EndPointStatus>1</EndPointStatus>
  </BikeShare>
  <BikeShare>
    <Vendor>CityBikes</Vendor>
    <City>Úbeda</City>
    <Country>Spain</Country>
    <Url>http://api.citybik.es/onroll-ubeda.json</Url>
    <Latitude>38.011463</Latitude>
    <Longitude>-3.373276</Longitude>
    <CacheHack>0</CacheHack>
    <EndPointStatus>1</EndPointStatus>
  </BikeShare>
  <BikeShare>
    <Vendor>CityBikes</Vendor>
    <City>Talavera de la Reina</City>
    <Country>Spain</Country>
    <Url>http://api.citybik.es/onroll-talavera.json</Url>
    <Latitude>39.961829</Latitude>
    <Longitude>-4.830319</Longitude>
    <CacheHack>0</CacheHack>
    <EndPointStatus>1</EndPointStatus>
  </BikeShare>
  <BikeShare>
    <Vendor>CityBikes</Vendor>
    <City>Universidad de Granada, Granada</City>
    <Country>Spain</Country>
    <Url>http://api.citybik.es/onroll-universidad-de-granada.json</Url>
    <Latitude>37.182438</Latitude>
    <Longitude>-3.604219</Longitude>
    <CacheHack>0</CacheHack>
    <EndPointStatus>1</EndPointStatus>
  </BikeShare>
  <BikeShare>
    <Vendor>CityBikes</Vendor>
    <City>Villaquilambre</City>
    <Country>Spain</Country>
    <Url>http://api.citybik.es/onroll-villaquilambre.json</Url>
    <Latitude>42.642358</Latitude>
    <Longitude>-5.535311</Longitude>
    <CacheHack>0</CacheHack>
    <EndPointStatus>1</EndPointStatus>
  </BikeShare>
  <BikeShare>
    <Vendor>CityBikes</Vendor>
    <City>Vinaròs</City>
    <Country>Spain</Country>
    <Url>http://api.citybik.es/onroll-vinaros.json</Url>
    <Latitude>40.468258</Latitude>
    <Longitude>0.466972</Longitude>
    <CacheHack>0</CacheHack>
    <EndPointStatus>1</EndPointStatus>
  </BikeShare>
  <BikeShare>
    <Vendor>CityBikes</Vendor>
    <City>Salamanca</City>
    <Country>Spain</Country>
    <Url>http://api.citybik.es/onroll-salamanca.json</Url>
    <Latitude>40.966771</Latitude>
    <Longitude>-5.665432</Longitude>
    <CacheHack>0</CacheHack>
    <EndPointStatus>1</EndPointStatus>
  </BikeShare>
  <BikeShare>
    <Vendor>CityBikes</Vendor>
    <City>Cd de México</City>
    <Country>Mexico</Country>
    <Url>http://api.citybik.es/ecobici.json</Url>
    <Latitude>19.432607</Latitude>
    <Longitude>-99.133208</Longitude>
    <CacheHack>0</CacheHack>
    <EndPointStatus>1</EndPointStatus>
  </BikeShare>
  <BikeShare>
    <Vendor>CityBikes</Vendor>
    <City>Barcelona</City>
    <Country>Spain</Country>
    <Url>http://api.citybik.es/bicing.json</Url>
    <Latitude>41.385063</Latitude>
    <Longitude>2.173403</Longitude>
    <CacheHack>0</CacheHack>
    <EndPointStatus>1</EndPointStatus>
  </BikeShare>
  <BikeShare>
    <Vendor>CityBikes</Vendor>
    <City>Zaragoza</City>
    <Country>Spain</Country>
    <Url>http://api.citybik.es/bizi.json</Url>
    <Latitude>41.64879</Latitude>
    <Longitude>-0.889581</Longitude>
    <CacheHack>0</CacheHack>
    <EndPointStatus>1</EndPointStatus>
  </BikeShare>
  <BikeShare>
    <Vendor>CityBikes</Vendor>
    <City>Dublin</City>
    <Country>Ireland</Country>
    <Url>http://api.citybik.es/dublinbikes.json</Url>
    <Latitude>53.349805</Latitude>
    <Longitude>-6.260309</Longitude>
    <CacheHack>0</CacheHack>
    <EndPointStatus>1</EndPointStatus>
  </BikeShare>
  <BikeShare>
    <Vendor>CityBikes</Vendor>
    <City>Segovia</City>
    <Country>Spain</Country>
    <Url>http://api.citybik.es/onroll-segovia.json</Url>
    <Latitude>40.941941</Latitude>
    <Longitude>-4.112396</Longitude>
    <CacheHack>0</CacheHack>
    <EndPointStatus>1</EndPointStatus>
  </BikeShare>
  <BikeShare>
    <Vendor>CityBikes</Vendor>
    <City>Rouen</City>
    <Country>France</Country>
    <Url>http://api.citybik.es/cyclic.json</Url>
    <Latitude>49.443231</Latitude>
    <Longitude>1.099971</Longitude>
    <CacheHack>0</CacheHack>
    <EndPointStatus>1</EndPointStatus>
  </BikeShare>
  <BikeShare>
    <Vendor>CityBikes</Vendor>
    <City>Toulouse</City>
    <Country>France</Country>
    <Url>http://api.citybik.es/velo.json</Url>
    <Latitude>43.604652</Latitude>
    <Longitude>1.444209</Longitude>
    <CacheHack>0</CacheHack>
    <EndPointStatus>1</EndPointStatus>
  </BikeShare>
  <BikeShare>
    <Vendor>CityBikes</Vendor>
    <City>Paris</City>
    <Country>France</Country>
    <Url>http://api.citybik.es/velib.json</Url>
    <Latitude>48.856614</Latitude>
    <Longitude>2.352221</Longitude>
    <CacheHack>0</CacheHack>
    <EndPointStatus>1</EndPointStatus>
  </BikeShare>
  <BikeShare>
    <Vendor>CityBikes</Vendor>
    <City>Noia - Portosin - Porto do Son</City>
    <Country>Spain</Country>
    <Url>http://api.citybik.es/onroll-via-verde.json</Url>
    <Latitude>42.768127</Latitude>
    <Longitude>-8.908513</Longitude>
    <CacheHack>0</CacheHack>
    <EndPointStatus>1</EndPointStatus>
  </BikeShare>
  <BikeShare>
    <Vendor>CityBikes</Vendor>
    <City>Luxembourg</City>
    <Country>Luxembourg</Country>
    <Url>http://api.citybik.es/veloh.json</Url>
    <Latitude>49.630102</Latitude>
    <Longitude>6.152018</Longitude>
    <CacheHack>0</CacheHack>
    <EndPointStatus>1</EndPointStatus>
  </BikeShare>
  <BikeShare>
    <Vendor>CityBikes</Vendor>
    <City>Brisbane</City>
    <Country>Australia</Country>
    <Url>http://api.citybik.es/citycycle.json</Url>
    <Latitude>-27.47101</Latitude>
    <Longitude>153.023448</Longitude>
    <CacheHack>0</CacheHack>
    <EndPointStatus>1</EndPointStatus>
  </BikeShare>
  <BikeShare>
    <Vendor>CityBikes</Vendor>
    <City>Stockholm</City>
    <Country>Sweden</Country>
    <Url>http://api.citybik.es/stockholm-cyclocity.json</Url>
    <Latitude>59.32893</Latitude>
    <Longitude>18.06491</Longitude>
    <CacheHack>0</CacheHack>
    <EndPointStatus>1</EndPointStatus>
  </BikeShare>
  <BikeShare>
    <Vendor>CityBikes</Vendor>
    <City>Santander</City>
    <Country>Spain</Country>
    <Url>http://api.citybik.es/tusbic.json</Url>
    <Latitude>43.462305</Latitude>
    <Longitude>-3.80998</Longitude>
    <CacheHack>0</CacheHack>
    <EndPointStatus>1</EndPointStatus>
  </BikeShare>
  <BikeShare>
    <Vendor>CityBikes</Vendor>
    <City>Lillestrøm</City>
    <Country>Norway</Country>
    <Url>http://api.citybik.es/bysykkel-lillestrom.json</Url>
    <Latitude>59.955969</Latitude>
    <Longitude>11.050378</Longitude>
    <CacheHack>0</CacheHack>
    <EndPointStatus>1</EndPointStatus>
  </BikeShare>
  <BikeShare>
    <Vendor>CityBikes</Vendor>
    <City>Mulhouse</City>
    <Country>France</Country>
    <Url>http://api.citybik.es/velocite-mulhouse.json</Url>
    <Latitude>47.750839</Latitude>
    <Longitude>7.335888</Longitude>
    <CacheHack>0</CacheHack>
    <EndPointStatus>1</EndPointStatus>
  </BikeShare>
  <BikeShare>
    <Vendor>CityBikes</Vendor>
    <City>Lyon</City>
    <Country>France</Country>
    <Url>http://api.citybik.es/velov.json</Url>
    <Latitude>45.764043</Latitude>
    <Longitude>4.835659</Longitude>
    <CacheHack>0</CacheHack>
    <EndPointStatus>1</EndPointStatus>
  </BikeShare>
  <BikeShare>
    <Vendor>CityBikes</Vendor>
    <City>Valencia</City>
    <Country>Spain</Country>
    <Url>http://api.citybik.es/valenbisi.json</Url>
    <Latitude>39.469907</Latitude>
    <Longitude>-0.376288</Longitude>
    <CacheHack>0</CacheHack>
    <EndPointStatus>1</EndPointStatus>
  </BikeShare>
  <BikeShare>
    <Vendor>CityBikes</Vendor>
    <City>Ljubljana</City>
    <Country>Slovenia</Country>
    <Url>http://api.citybik.es/bicikelj.json</Url>
    <Latitude>46.05645</Latitude>
    <Longitude>14.50807</Longitude>
    <CacheHack>0</CacheHack>
    <EndPointStatus>1</EndPointStatus>
  </BikeShare>
  <BikeShare>
    <Vendor>CityBikes</Vendor>
    <City>Göteborg</City>
    <Country>Sweden</Country>
    <Url>http://api.citybik.es/goeteborg.json</Url>
    <Latitude>57.70887</Latitude>
    <Longitude>11.97456</Longitude>
    <CacheHack>0</CacheHack>
    <EndPointStatus>1</EndPointStatus>
  </BikeShare>
  <BikeShare>
    <Vendor>CityBikes</Vendor>
    <City>Amiens</City>
    <Country>France</Country>
    <Url>http://api.citybik.es/velam.json</Url>
    <Latitude>49.894067</Latitude>
    <Longitude>2.295753</Longitude>
    <CacheHack>0</CacheHack>
    <EndPointStatus>1</EndPointStatus>
  </BikeShare>
  <BikeShare>
    <Vendor>CityBikes</Vendor>
    <City>Namur</City>
    <Country>Belgium</Country>
    <Url>http://api.citybik.es/li-bia-velo.json</Url>
    <Latitude>50.465328</Latitude>
    <Longitude>4.867665</Longitude>
    <CacheHack>0</CacheHack>
    <EndPointStatus>1</EndPointStatus>
  </BikeShare>
  <BikeShare>
    <Vendor>CityBikes</Vendor>
    <City>Créteil</City>
    <Country>France</Country>
    <Url>http://api.citybik.es/cristolib.json</Url>
    <Latitude>48.790367</Latitude>
    <Longitude>2.455572</Longitude>
    <CacheHack>0</CacheHack>
    <EndPointStatus>1</EndPointStatus>
  </BikeShare>
  <BikeShare>
    <Vendor>CityBikes</Vendor>
    <City>Nancy</City>
    <Country>France</Country>
    <Url>http://api.citybik.es/velostanlib.json</Url>
    <Latitude>48.692054</Latitude>
    <Longitude>6.184417</Longitude>
    <CacheHack>0</CacheHack>
    <EndPointStatus>1</EndPointStatus>
  </BikeShare>
  <BikeShare>
    <Vendor>CityBikes</Vendor>
    <City>Bruxelles</City>
    <Country>Belgium</Country>
    <Url>http://api.citybik.es/villo.json</Url>
    <Latitude>50.850339</Latitude>
    <Longitude>4.35171</Longitude>
    <CacheHack>0</CacheHack>
    <EndPointStatus>1</EndPointStatus>
  </BikeShare>
  <BikeShare>
    <Vendor>CityBikes</Vendor>
    <City>Sevilla</City>
    <Country>Spain</Country>
    <Url>http://api.citybik.es/sevici.json</Url>
    <Latitude>37.388096</Latitude>
    <Longitude>-5.982329</Longitude>
    <CacheHack>0</CacheHack>
    <EndPointStatus>1</EndPointStatus>
  </BikeShare>
  <BikeShare>
    <Vendor>CityBikes</Vendor>
    <City>Cergy</City>
    <Country>France</Country>
    <Url>http://api.citybik.es/velo2.json</Url>
    <Latitude>49.035616</Latitude>
    <Longitude>2.060325</Longitude>
    <CacheHack>0</CacheHack>
    <EndPointStatus>1</EndPointStatus>
  </BikeShare>
  <BikeShare>
    <Vendor>CityBikes</Vendor>
    <City>Vilnius</City>
    <Country>Lithuania</Country>
    <Url>http://api.citybik.es/vilnius-cyclocity.json</Url>
    <Latitude>54.687155</Latitude>
    <Longitude>25.279651</Longitude>
    <CacheHack>0</CacheHack>
    <EndPointStatus>1</EndPointStatus>
  </BikeShare>
  <BikeShare>
    <Vendor>CityBikes</Vendor>
    <City>富山市</City>
    <Country>Japan</Country>
    <Url>http://api.citybik.es/toyama-cyclocity.json</Url>
    <Latitude>36.695951</Latitude>
    <Longitude>137.213676</Longitude>
    <CacheHack>0</CacheHack>
    <EndPointStatus>1</EndPointStatus>
  </BikeShare>
  <BikeShare>
    <Vendor>CityBikes</Vendor>
    <City>Nantes</City>
    <Country>France</Country>
    <Url>http://api.citybik.es/bicloo.json</Url>
    <Latitude>47.218371</Latitude>
    <Longitude>-1.553621</Longitude>
    <CacheHack>0</CacheHack>
    <EndPointStatus>1</EndPointStatus>
  </BikeShare>
  <BikeShare>
    <Vendor>CityBikes</Vendor>
    <City>Besançon</City>
    <Country>France</Country>
    <Url>http://api.citybik.es/velocite-besancon.json</Url>
    <Latitude>47.237829</Latitude>
    <Longitude>6.024053</Longitude>
    <CacheHack>0</CacheHack>
    <EndPointStatus>1</EndPointStatus>
  </BikeShare>
  <BikeShare>
    <Vendor>CityBikes</Vendor>
    <City>Palma</City>
    <Country>Spain</Country>
    <Url>http://api.citybik.es/bicipalma.json</Url>
    <Latitude>39.57119</Latitude>
    <Longitude>2.646634</Longitude>
    <CacheHack>0</CacheHack>
    <EndPointStatus>1</EndPointStatus>
  </BikeShare>
  <BikeShare>
    <Vendor>CityBikes</Vendor>
    <City>Girona</City>
    <Country>Spain</Country>
    <Url>http://api.citybik.es/girocleta.json</Url>
    <Latitude>41.9794</Latitude>
    <Longitude>2.821426</Longitude>
    <CacheHack>0</CacheHack>
    <EndPointStatus>1</EndPointStatus>
  </BikeShare>
  <BikeShare>
    <Vendor>CityBikes</Vendor>
    <City>Marseille</City>
    <Country>France</Country>
    <Url>http://api.citybik.es/le-velo.json</Url>
    <Latitude>43.296482</Latitude>
    <Longitude>5.36978</Longitude>
    <CacheHack>0</CacheHack>
    <EndPointStatus>1</EndPointStatus>
  </BikeShare>
  <BikeShare>
    <Vendor>CityBikes</Vendor>
    <City>Казань</City>
    <Country>Russia</Country>
    <Url>http://api.citybik.es/velik.json</Url>
    <Latitude>55.794941</Latitude>
    <Longitude>49.105044</Longitude>
    <CacheHack>0</CacheHack>
    <EndPointStatus>1</EndPointStatus>
  </BikeShare>
  <BikeShare>
    <Vendor>CityBikes</Vendor>
    <City>Austin, TX</City>
    <Country>United States</Country>
    <Url>http://api.citybik.es/austin.json</Url>
    <Latitude>30.267153</Latitude>
    <Longitude>-97.74306</Longitude>
    <CacheHack>0</CacheHack>
    <EndPointStatus>1</EndPointStatus>
  </BikeShare>
  <BikeShare>
    <Vendor>CityBikes</Vendor>
    <City>León</City>
    <Country>Spain</Country>
    <Url>http://api.citybik.es/bicileon.json</Url>
    <Latitude>42.598726</Latitude>
    <Longitude>-5.567095</Longitude>
    <CacheHack>0</CacheHack>
    <EndPointStatus>1</EndPointStatus>
  </BikeShare>
  <BikeShare>
    <Vendor>NextBike</Vendor>
    <City>Leipzig</City>
    <Country>Germany</Country>
    <Url>http://nextbike.net/maps/nextbike-official.xml?city=1</Url>
    <Latitude>51.3403</Latitude>
    <Longitude>12.3759</Longitude>
    <CacheHack>0</CacheHack>
    <EndPointStatus>1</EndPointStatus>
  </BikeShare>
  <BikeShare>
    <Vendor>NextBike</Vendor>
    <City>Frankfurt</City>
    <Country>Germany</Country>
    <Url>http://nextbike.net/maps/nextbike-official.xml?city=8</Url>
    <Latitude>50.1072</Latitude>
    <Longitude>8.66375</Longitude>
    <CacheHack>0</CacheHack>
    <EndPointStatus>1</EndPointStatus>
  </BikeShare>
  <BikeShare>
    <Vendor>NextBike</Vendor>
    <City>Bielefeld</City>
    <Country>Germany</Country>
    <Url>http://nextbike.net/maps/nextbike-official.xml?city=16</Url>
    <Latitude>52.0257</Latitude>
    <Longitude>8.53286</Longitude>
    <CacheHack>0</CacheHack>
    <EndPointStatus>1</EndPointStatus>
  </BikeShare>
  <BikeShare>
    <Vendor>NextBike</Vendor>
    <City>Berlin</City>
    <Country>Germany</Country>
    <Url>http://nextbike.net/maps/nextbike-official.xml?city=20</Url>
    <Latitude>52.5087</Latitude>
    <Longitude>13.3563</Longitude>
    <CacheHack>0</CacheHack>
    <EndPointStatus>1</EndPointStatus>
  </BikeShare>
  <BikeShare>
    <Vendor>NextBike</Vendor>
    <City>Offenbach am Main</City>
    <Country>Germany</Country>
    <Url>http://nextbike.net/maps/nextbike-official.xml?city=32</Url>
    <Latitude>50.1093</Latitude>
    <Longitude>8.73825</Longitude>
    <CacheHack>0</CacheHack>
    <EndPointStatus>1</EndPointStatus>
  </BikeShare>
  <BikeShare>
    <Vendor>NextBike</Vendor>
    <City>Magdeburg</City>
    <Country>Germany</Country>
    <Url>http://nextbike.net/maps/nextbike-official.xml?city=42</Url>
    <Latitude>52.1268</Latitude>
    <Longitude>11.6342</Longitude>
    <CacheHack>0</CacheHack>
    <EndPointStatus>1</EndPointStatus>
  </BikeShare>
  <BikeShare>
    <Vendor>NextBike</Vendor>
    <City>Hamburg</City>
    <Country>Germany</Country>
    <Url>http://nextbike.net/maps/nextbike-official.xml?city=43</Url>
    <Latitude>53.5506</Latitude>
    <Longitude>9.99052</Longitude>
    <CacheHack>0</CacheHack>
    <EndPointStatus>1</EndPointStatus>
  </BikeShare>
  <BikeShare>
    <Vendor>NextBike</Vendor>
    <City>Düsseldorf</City>
    <Country>Germany</Country>
    <Url>http://nextbike.net/maps/nextbike-official.xml?city=50</Url>
    <Latitude>51.2243</Latitude>
    <Longitude>6.77204</Longitude>
    <CacheHack>0</CacheHack>
    <EndPointStatus>1</EndPointStatus>
  </BikeShare>
  <BikeShare>
    <Vendor>NextBike</Vendor>
    <City>Hannover</City>
    <Country>Germany</Country>
    <Url>http://nextbike.net/maps/nextbike-official.xml?city=87</Url>
    <Latitude>52.3721</Latitude>
    <Longitude>9.73569</Longitude>
    <CacheHack>0</CacheHack>
    <EndPointStatus>1</EndPointStatus>
  </BikeShare>
  <BikeShare>
    <Vendor>NextBike</Vendor>
    <City>Tübingen</City>
    <Country>Germany</Country>
    <Url>http://nextbike.net/maps/nextbike-official.xml?city=101</Url>
    <Latitude>48.5203</Latitude>
    <Longitude>9.05591</Longitude>
    <CacheHack>0</CacheHack>
    <EndPointStatus>1</EndPointStatus>
  </BikeShare>
  <BikeShare>
    <Vendor>NextBike</Vendor>
    <City>München</City>
    <Country>Germany</Country>
    <Url>http://nextbike.net/maps/nextbike-official.xml?city=139</Url>
    <Latitude>48.1392</Latitude>
    <Longitude>11.5791</Longitude>
    <CacheHack>0</CacheHack>
    <EndPointStatus>1</EndPointStatus>
  </BikeShare>
  <BikeShare>
    <Vendor>NextBike</Vendor>
    <City>Flensburg</City>
    <Country>Germany</Country>
    <Url>http://nextbike.net/maps/nextbike-official.xml?city=147</Url>
    <Latitude>54.7804</Latitude>
    <Longitude>9.43571</Longitude>
    <CacheHack>0</CacheHack>
    <EndPointStatus>1</EndPointStatus>
  </BikeShare>
  <BikeShare>
    <Vendor>NextBike</Vendor>
    <City>Offenburg</City>
    <Country>Germany</Country>
    <Url>http://nextbike.net/maps/nextbike-official.xml?city=155</Url>
    <Latitude>48.4721</Latitude>
    <Longitude>7.94243</Longitude>
    <CacheHack>0</CacheHack>
    <EndPointStatus>1</EndPointStatus>
  </BikeShare>
  <BikeShare>
    <Vendor>NextBike</Vendor>
    <City>Potsdam</City>
    <Country>Germany</Country>
    <Url>http://nextbike.net/maps/nextbike-official.xml?city=158</Url>
    <Latitude>52.3997</Latitude>
    <Longitude>13.0676</Longitude>
    <CacheHack>0</CacheHack>
    <EndPointStatus>1</EndPointStatus>
  </BikeShare>
  <BikeShare>
    <Vendor>NextBike</Vendor>
    <City>Gütersloh</City>
    <Country>Germany</Country>
    <Url>http://nextbike.net/maps/nextbike-official.xml?city=160</Url>
    <Latitude>51.9049</Latitude>
    <Longitude>8.39275</Longitude>
    <CacheHack>0</CacheHack>
    <EndPointStatus>1</EndPointStatus>
  </BikeShare>
  <BikeShare>
    <Vendor>NextBike</Vendor>
    <City>Norderstedt</City>
    <Country>Germany</Country>
    <Url>http://nextbike.net/maps/nextbike-official.xml?city=177</Url>
    <Latitude>53.6969</Latitude>
    <Longitude>10.002</Longitude>
    <CacheHack>0</CacheHack>
    <EndPointStatus>1</EndPointStatus>
  </BikeShare>
  <BikeShare>
    <Vendor>NextBike</Vendor>
    <City>Augsburg</City>
    <Country>Germany</Country>
    <Url>http://nextbike.net/maps/nextbike-official.xml?city=178</Url>
    <Latitude>48.3647</Latitude>
    <Longitude>10.8916</Longitude>
    <CacheHack>0</CacheHack>
    <EndPointStatus>1</EndPointStatus>
  </BikeShare>
  <BikeShare>
    <Vendor>NextBike</Vendor>
    <City>Halensee KuDamm</City>
    <Country>Germany</Country>
    <Url>http://nextbike.net/maps/nextbike-official.xml?city=182</Url>
    <Latitude>52.5024</Latitude>
    <Longitude>13.3027</Longitude>
    <CacheHack>0</CacheHack>
    <EndPointStatus>1</EndPointStatus>
  </BikeShare>
  <BikeShare>
    <Vendor>NextBike</Vendor>
    <City>Burghausen</City>
    <Country>Germany</Country>
    <Url>http://nextbike.net/maps/nextbike-official.xml?city=201</Url>
    <Latitude>48.1726</Latitude>
    <Longitude>12.8311</Longitude>
    <CacheHack>0</CacheHack>
    <EndPointStatus>1</EndPointStatus>
  </BikeShare>
  <BikeShare>
    <Vendor>NextBike</Vendor>
    <City>WienerWald</City>
    <Country>Austria</Country>
    <Url>http://nextbike.net/maps/nextbike-official.xml?city=213</Url>
    <Latitude>48.1917</Latitude>
    <Longitude>16.1197</Longitude>
    <CacheHack>0</CacheHack>
    <EndPointStatus>1</EndPointStatus>
  </BikeShare>
  <BikeShare>
    <Vendor>NextBike</Vendor>
    <City>Auckland</City>
    <Country>New Zealand</Country>
    <Url>http://nextbike.net/maps/nextbike-official.xml?city=34</Url>
    <Latitude>-36.8603</Latitude>
    <Longitude>174.763</Longitude>
    <CacheHack>0</CacheHack>
    <EndPointStatus>1</EndPointStatus>
  </BikeShare>
  <BikeShare>
    <Vendor>NextBike</Vendor>
    <City>Christchurch</City>
    <Country>New Zealand</Country>
    <Url>http://nextbike.net/maps/nextbike-official.xml?city=193</Url>
    <Latitude>-43.5341</Latitude>
    <Longitude>172.621</Longitude>
    <CacheHack>0</CacheHack>
    <EndPointStatus>1</EndPointStatus>
  </BikeShare>
  <BikeShare>
    <Vendor>NextBike</Vendor>
    <City>NeusiedlerSee</City>
    <Country>Austria</Country>
    <Url>http://nextbike.net/maps/nextbike-official.xml?city=23</Url>
    <Latitude>47.839</Latitude>
    <Longitude>16.761</Longitude>
    <CacheHack>0</CacheHack>
    <EndPointStatus>1</EndPointStatus>
  </BikeShare>
  <BikeShare>
    <Vendor>NextBike</Vendor>
    <City>St.Pölten</City>
    <Country>Austria</Country>
    <Url>http://nextbike.net/maps/nextbike-official.xml?city=57</Url>
    <Latitude>48.2058</Latitude>
    <Longitude>15.6232</Longitude>
    <CacheHack>0</CacheHack>
    <EndPointStatus>1</EndPointStatus>
  </BikeShare>
  <BikeShare>
    <Vendor>NextBike</Vendor>
    <City>Mödling</City>
    <Country>Austria</Country>
    <Url>http://nextbike.net/maps/nextbike-official.xml?city=64</Url>
    <Latitude>48.1047</Latitude>
    <Longitude>16.3202</Longitude>
    <CacheHack>0</CacheHack>
    <EndPointStatus>1</EndPointStatus>
  </BikeShare>
  <BikeShare>
    <Vendor>NextBike</Vendor>
    <City>Wachau</City>
    <Country>Austria</Country>
    <Url>http://nextbike.net/maps/nextbike-official.xml?city=142</Url>
    <Latitude>48.3188</Latitude>
    <Longitude>15.4166</Longitude>
    <CacheHack>0</CacheHack>
    <EndPointStatus>1</EndPointStatus>
  </BikeShare>
  <BikeShare>
    <Vendor>NextBike</Vendor>
    <City>Tulln</City>
    <Country>Austria</Country>
    <Url>http://nextbike.net/maps/nextbike-official.xml?city=143</Url>
    <Latitude>48.3269</Latitude>
    <Longitude>16.0569</Longitude>
    <CacheHack>0</CacheHack>
    <EndPointStatus>1</EndPointStatus>
  </BikeShare>
  <BikeShare>
    <Vendor>NextBike</Vendor>
    <City>Triestingtal</City>
    <Country>Austria</Country>
    <Url>http://nextbike.net/maps/nextbike-official.xml?city=144</Url>
    <Latitude>47.9835</Latitude>
    <Longitude>16.0812</Longitude>
    <CacheHack>0</CacheHack>
    <EndPointStatus>1</EndPointStatus>
  </BikeShare>
  <BikeShare>
    <Vendor>NextBike</Vendor>
    <City>Thermenregion</City>
    <Country>Austria</Country>
    <Url>http://nextbike.net/maps/nextbike-official.xml?city=146</Url>
    <Latitude>47.9892</Latitude>
    <Longitude>16.2646</Longitude>
    <CacheHack>0</CacheHack>
    <EndPointStatus>1</EndPointStatus>
  </BikeShare>
  <BikeShare>
    <Vendor>NextBike</Vendor>
    <City>Römerland</City>
    <Country>Austria</Country>
    <Url>http://nextbike.net/maps/nextbike-official.xml?city=149</Url>
    <Latitude>48.0909</Latitude>
    <Longitude>16.853</Longitude>
    <CacheHack>0</CacheHack>
    <EndPointStatus>1</EndPointStatus>
  </BikeShare>
  <BikeShare>
    <Vendor>NextBike</Vendor>
    <City>ÖBB-Bahnhöfe</City>
    <Country>Austria</Country>
    <Url>http://nextbike.net/maps/nextbike-official.xml?city=150</Url>
    <Latitude>48.0193</Latitude>
    <Longitude>16.3092</Longitude>
    <CacheHack>0</CacheHack>
    <EndPointStatus>1</EndPointStatus>
  </BikeShare>
  <BikeShare>
    <Vendor>NextBike</Vendor>
    <City>Wieselburg</City>
    <Country>Austria</Country>
    <Url>http://nextbike.net/maps/nextbike-official.xml?city=151</Url>
    <Latitude>48.1739</Latitude>
    <Longitude>15.1556</Longitude>
    <CacheHack>0</CacheHack>
    <EndPointStatus>1</EndPointStatus>
  </BikeShare>
  <BikeShare>
    <Vendor>NextBike</Vendor>
    <City>Wr.Neustadt</City>
    <Country>Austria</Country>
    <Url>http://nextbike.net/maps/nextbike-official.xml?city=156</Url>
    <Latitude>47.8221</Latitude>
    <Longitude>16.2498</Longitude>
    <CacheHack>0</CacheHack>
    <EndPointStatus>1</EndPointStatus>
  </BikeShare>
  <BikeShare>
    <Vendor>NextBike</Vendor>
    <City>Neunkirchen</City>
    <Country>Austria</Country>
    <Url>http://nextbike.net/maps/nextbike-official.xml?city=163</Url>
    <Latitude>47.7227</Latitude>
    <Longitude>16.0804</Longitude>
    <CacheHack>0</CacheHack>
    <EndPointStatus>1</EndPointStatus>
  </BikeShare>
  <BikeShare>
    <Vendor>NextBike</Vendor>
    <City>Krems Ost</City>
    <Country>Austria</Country>
    <Url>http://nextbike.net/maps/nextbike-official.xml?city=164</Url>
    <Latitude>48.4183</Latitude>
    <Longitude>15.6909</Longitude>
    <CacheHack>0</CacheHack>
    <EndPointStatus>1</EndPointStatus>
  </BikeShare>
  <BikeShare>
    <Vendor>NextBike</Vendor>
    <City>Unteres Traisental</City>
    <Country>Austria</Country>
    <Url>http://nextbike.net/maps/nextbike-official.xml?city=165</Url>
    <Latitude>48.3343</Latitude>
    <Longitude>15.6878</Longitude>
    <CacheHack>0</CacheHack>
    <EndPointStatus>1</EndPointStatus>
  </BikeShare>
  <BikeShare>
    <Vendor>NextBike</Vendor>
    <City>Haag</City>
    <Country>Austria</Country>
    <Url>http://nextbike.net/maps/nextbike-official.xml?city=167</Url>
    <Latitude>48.0643</Latitude>
    <Longitude>14.7368</Longitude>
    <CacheHack>0</CacheHack>
    <EndPointStatus>1</EndPointStatus>
  </BikeShare>
  <BikeShare>
    <Vendor>NextBike</Vendor>
    <City>Piestingtal</City>
    <Country>Austria</Country>
    <Url>http://nextbike.net/maps/nextbike-official.xml?city=168</Url>
    <Latitude>47.8841</Latitude>
    <Longitude>15.9467</Longitude>
    <CacheHack>0</CacheHack>
    <EndPointStatus>1</EndPointStatus>
  </BikeShare>
  <BikeShare>
    <Vendor>NextBike</Vendor>
    <City>Mistelbach</City>
    <Country>Austria</Country>
    <Url>http://nextbike.net/maps/nextbike-official.xml?city=169</Url>
    <Latitude>48.5674</Latitude>
    <Longitude>16.5722</Longitude>
    <CacheHack>0</CacheHack>
    <EndPointStatus>1</EndPointStatus>
  </BikeShare>
  <BikeShare>
    <Vendor>NextBike</Vendor>
    <City>Marchfeld</City>
    <Country>Austria</Country>
    <Url>http://nextbike.net/maps/nextbike-official.xml?city=170</Url>
    <Latitude>48.2741</Latitude>
    <Longitude>16.7116</Longitude>
    <CacheHack>0</CacheHack>
    <EndPointStatus>1</EndPointStatus>
  </BikeShare>
  <BikeShare>
    <Vendor>NextBike</Vendor>
    <City>10vorWien</City>
    <Country>Austria</Country>
    <Url>http://nextbike.net/maps/nextbike-official.xml?city=174</Url>
    <Latitude>48.3462</Latitude>
    <Longitude>16.2735</Longitude>
    <CacheHack>0</CacheHack>
    <EndPointStatus>1</EndPointStatus>
  </BikeShare>
  <BikeShare>
    <Vendor>NextBike</Vendor>
    <City>Traisen-Gölsental</City>
    <Country>Austria</Country>
    <Url>http://nextbike.net/maps/nextbike-official.xml?city=180</Url>
    <Latitude>47.9504</Latitude>
    <Longitude>15.6129</Longitude>
    <CacheHack>0</CacheHack>
    <EndPointStatus>1</EndPointStatus>
  </BikeShare>
  <BikeShare>
    <Vendor>NextBike</Vendor>
    <City>Oberes Ybbstal</City>
    <Country>Austria</Country>
    <Url>http://nextbike.net/maps/nextbike-official.xml?city=181</Url>
    <Latitude>47.8205</Latitude>
    <Longitude>15.0073</Longitude>
    <CacheHack>0</CacheHack>
    <EndPointStatus>1</EndPointStatus>
  </BikeShare>
  <BikeShare>
    <Vendor>NextBike</Vendor>
    <City>Laa an der Thaya</City>
    <Country>Austria</Country>
    <Url>http://nextbike.net/maps/nextbike-official.xml?city=184</Url>
    <Latitude>48.7196</Latitude>
    <Longitude>16.3878</Longitude>
    <CacheHack>0</CacheHack>
    <EndPointStatus>1</EndPointStatus>
  </BikeShare>
  <BikeShare>
    <Vendor>NextBike</Vendor>
    <City>Südheide</City>
    <Country>Austria</Country>
    <Url>http://nextbike.net/maps/nextbike-official.xml?city=185</Url>
    <Latitude>48.1077</Latitude>
    <Longitude>16.3937</Longitude>
    <CacheHack>0</CacheHack>
    <EndPointStatus>1</EndPointStatus>
  </BikeShare>
  <BikeShare>
    <Vendor>NextBike</Vendor>
    <City>Tullnerfeld West</City>
    <Country>Austria</Country>
    <Url>http://nextbike.net/maps/nextbike-official.xml?city=196</Url>
    <Latitude>48.2994</Latitude>
    <Longitude>15.9065</Longitude>
    <CacheHack>0</CacheHack>
    <EndPointStatus>1</EndPointStatus>
  </BikeShare>
  <BikeShare>
    <Vendor>NextBike</Vendor>
    <City>Hollabrunn</City>
    <Country>Austria</Country>
    <Url>http://nextbike.net/maps/nextbike-official.xml?city=212</Url>
    <Latitude>48.562</Latitude>
    <Longitude>16.0785</Longitude>
    <CacheHack>0</CacheHack>
    <EndPointStatus>1</EndPointStatus>
  </BikeShare>
  <BikeShare>
    <Vendor>NextBike</Vendor>
    <City>Luzern</City>
    <Country>Switzerland</Country>
    <Url>http://nextbike.net/maps/nextbike-official.xml?city=126</Url>
    <Latitude>47.0472</Latitude>
    <Longitude>8.30446</Longitude>
    <CacheHack>0</CacheHack>
    <EndPointStatus>1</EndPointStatus>
  </BikeShare>
  <BikeShare>
    <Vendor>NextBike</Vendor>
    <City>Riga</City>
    <Country>Latvia</Country>
    <Url>http://nextbike.net/maps/nextbike-official.xml?city=128</Url>
    <Latitude>56.9453</Latitude>
    <Longitude>24.1033</Longitude>
    <CacheHack>0</CacheHack>
    <EndPointStatus>1</EndPointStatus>
  </BikeShare>
  <BikeShare>
    <Vendor>NextBike</Vendor>
    <City>Wrocław</City>
    <Country>Poland</Country>
    <Url>http://nextbike.net/maps/nextbike-official.xml?city=148</Url>
    <Latitude>51.1097</Latitude>
    <Longitude>17.0485</Longitude>
    <CacheHack>0</CacheHack>
    <EndPointStatus>1</EndPointStatus>
  </BikeShare>
  <BikeShare>
    <Vendor>NextBike</Vendor>
    <City>WROCŁAW 61</City>
    <Country>Poland</Country>
    <Url>http://nextbike.net/maps/nextbike-official.xml?city=187</Url>
    <Latitude>51.1128</Latitude>
    <Longitude>17.0247</Longitude>
    <CacheHack>0</CacheHack>
    <EndPointStatus>1</EndPointStatus>
  </BikeShare>
  <BikeShare>
    <Vendor>NextBike</Vendor>
    <City>Nürnberg</City>
    <Country>Germany</Country>
    <Url>http://nextbike.net/maps/nextbike-official.xml?city=6</Url>
    <Latitude>49.4479</Latitude>
    <Longitude>11.0814</Longitude>
    <CacheHack>0</CacheHack>
    <EndPointStatus>1</EndPointStatus>
  </BikeShare>
  <BikeShare>
    <Vendor>NextBike</Vendor>
    <City>İzmir</City>
    <Country>Turkey</Country>
    <Url>http://nextbike.net/maps/nextbike-official.xml?city=214</Url>
    <Latitude>38.4418</Latitude>
    <Longitude>27.1081</Longitude>
    <CacheHack>0</CacheHack>
    <EndPointStatus>1</EndPointStatus>
  </BikeShare>
  <BikeShare>
    <Vendor>NextBike</Vendor>
    <City>Dortmund</City>
    <Country>Germany</Country>
    <Url>http://nextbike.net/maps/nextbike-official.xml?city=129</Url>
    <Latitude>51.5141</Latitude>
    <Longitude>7.46255</Longitude>
    <CacheHack>0</CacheHack>
    <EndPointStatus>1</EndPointStatus>
  </BikeShare>
  <BikeShare>
    <Vendor>NextBike</Vendor>
    <City>Bochum</City>
    <Country>Germany</Country>
    <Url>http://nextbike.net/maps/nextbike-official.xml?city=130</Url>
    <Latitude>51.4813</Latitude>
    <Longitude>7.2133</Longitude>
    <CacheHack>0</CacheHack>
    <EndPointStatus>1</EndPointStatus>
  </BikeShare>
  <BikeShare>
    <Vendor>NextBike</Vendor>
    <City>Bottrop</City>
    <Country>Germany</Country>
    <Url>http://nextbike.net/maps/nextbike-official.xml?city=131</Url>
    <Latitude>51.5263</Latitude>
    <Longitude>6.94611</Longitude>
    <CacheHack>0</CacheHack>
    <EndPointStatus>1</EndPointStatus>
  </BikeShare>
  <BikeShare>
    <Vendor>NextBike</Vendor>
    <City>Duisburg</City>
    <Country>Germany</Country>
    <Url>http://nextbike.net/maps/nextbike-official.xml?city=132</Url>
    <Latitude>51.4487</Latitude>
    <Longitude>6.77513</Longitude>
    <CacheHack>0</CacheHack>
    <EndPointStatus>1</EndPointStatus>
  </BikeShare>
  <BikeShare>
    <Vendor>NextBike</Vendor>
    <City>Essen</City>
    <Country>Germany</Country>
    <Url>http://nextbike.net/maps/nextbike-official.xml?city=133</Url>
    <Latitude>51.4425</Latitude>
    <Longitude>7.02301</Longitude>
    <CacheHack>0</CacheHack>
    <EndPointStatus>1</EndPointStatus>
  </BikeShare>
  <BikeShare>
    <Vendor>NextBike</Vendor>
    <City>Gelsenkirchen</City>
    <Country>Germany</Country>
    <Url>http://nextbike.net/maps/nextbike-official.xml?city=134</Url>
    <Latitude>51.5404</Latitude>
    <Longitude>7.07039</Longitude>
    <CacheHack>0</CacheHack>
    <EndPointStatus>1</EndPointStatus>
  </BikeShare>
  <BikeShare>
    <Vendor>NextBike</Vendor>
    <City>Hamm</City>
    <Country>Germany</Country>
    <Url>http://nextbike.net/maps/nextbike-official.xml?city=135</Url>
    <Latitude>51.6775</Latitude>
    <Longitude>7.84836</Longitude>
    <CacheHack>0</CacheHack>
    <EndPointStatus>1</EndPointStatus>
  </BikeShare>
  <BikeShare>
    <Vendor>NextBike</Vendor>
    <City>Herne</City>
    <Country>Germany</Country>
    <Url>http://nextbike.net/maps/nextbike-official.xml?city=136</Url>
    <Latitude>51.5363</Latitude>
    <Longitude>7.21493</Longitude>
    <CacheHack>0</CacheHack>
    <EndPointStatus>1</EndPointStatus>
  </BikeShare>
  <BikeShare>
    <Vendor>NextBike</Vendor>
    <City>Mülheim a.d.R.</City>
    <Country>Germany</Country>
    <Url>http://nextbike.net/maps/nextbike-official.xml?city=137</Url>
    <Latitude>51.4308</Latitude>
    <Longitude>6.87401</Longitude>
    <CacheHack>0</CacheHack>
    <EndPointStatus>1</EndPointStatus>
  </BikeShare>
  <BikeShare>
    <Vendor>NextBike</Vendor>
    <City>Oberhausen</City>
    <Country>Germany</Country>
    <Url>http://nextbike.net/maps/nextbike-official.xml?city=138</Url>
    <Latitude>51.4936</Latitude>
    <Longitude>6.85169</Longitude>
    <CacheHack>0</CacheHack>
    <EndPointStatus>1</EndPointStatus>
  </BikeShare>
  <BikeShare>
    <Vendor>NextBike</Vendor>
    <City>Limassol</City>
    <Country>Cyprus</Country>
    <Url>http://nextbike.net/maps/nextbike-official.xml?city=190</Url>
    <Latitude>34.6823</Latitude>
    <Longitude>33.0464</Longitude>
    <CacheHack>0</CacheHack>
    <EndPointStatus>1</EndPointStatus>
  </BikeShare>
  <BikeShare>
    <Vendor>NextBike</Vendor>
    <City>Bemowo</City>
    <Country>Poland</Country>
    <Url>http://nextbike.net/maps/nextbike-official.xml?city=197</Url>
    <Latitude>52.2425</Latitude>
    <Longitude>20.9149</Longitude>
    <CacheHack>0</CacheHack>
    <EndPointStatus>1</EndPointStatus>
  </BikeShare>
  <BikeShare>
    <Vendor>NextBike</Vendor>
    <City>Poznan</City>
    <Country>Poland</Country>
    <Url>http://nextbike.net/maps/nextbike-official.xml?city=192</Url>
    <Latitude>52.4077</Latitude>
    <Longitude>16.9323</Longitude>
    <CacheHack>0</CacheHack>
    <EndPointStatus>1</EndPointStatus>
  </BikeShare>
  <BikeShare>
    <Vendor>NextBike</Vendor>
    <City>Opole</City>
    <Country>Poland</Country>
    <Url>http://nextbike.net/maps/nextbike-official.xml?city=202</Url>
    <Latitude>50.6633</Latitude>
    <Longitude>17.9239</Longitude>
    <CacheHack>0</CacheHack>
    <EndPointStatus>1</EndPointStatus>
  </BikeShare>
  <BikeShare>
    <Vendor>NextBike</Vendor>
    <City>Baku</City>
    <Country>Azerbaijan</Country>
    <Url>http://nextbike.net/maps/nextbike-official.xml?city=205</Url>
    <Latitude>40.3605</Latitude>
    <Longitude>49.8426</Longitude>
    <CacheHack>0</CacheHack>
    <EndPointStatus>1</EndPointStatus>
  </BikeShare>
  <BikeShare>
    <Vendor>NextBike</Vendor>
    <City>Warszawa</City>
    <Country>Poland</Country>
    <Url>http://nextbike.net/maps/nextbike-official.xml?city=210</Url>
    <Latitude>52.2324</Latitude>
    <Longitude>21.0127</Longitude>
    <CacheHack>0</CacheHack>
    <EndPointStatus>1</EndPointStatus>
  </BikeShare>
  <BikeShare>
    <Vendor>NextBike</Vendor>
    <City>Konya</City>
    <Country>Turkey</Country>
    <Url>http://nextbike.net/maps/nextbike-official.xml?city=183</Url>
    <Latitude>37.8715</Latitude>
    <Longitude>32.4957</Longitude>
    <CacheHack>0</CacheHack>
    <EndPointStatus>1</EndPointStatus>
  </BikeShare>
  <BikeShare>
    <Vendor>NextBike</Vendor>
    <City>Dobrich</City>
    <Country>Bulgaria</Country>
    <Url>http://nextbike.net/maps/nextbike-official.xml?city=215</Url>
    <Latitude>43.567</Latitude>
    <Longitude>27.8285</Longitude>
    <CacheHack>0</CacheHack>
    <EndPointStatus>1</EndPointStatus>
  </BikeShare>
  <BikeShare>
    <Vendor>NextBike</Vendor>
    <City>Dubai</City>
    <Country>United Arab Emirates</Country>
    <Url>http://nextbike.net/maps/nextbike-official.xml?city=219</Url>
    <Latitude>25.2435</Latitude>
    <Longitude>55.2722</Longitude>
    <CacheHack>0</CacheHack>
    <EndPointStatus>1</EndPointStatus>
  </BikeShare>
  <BikeShare>
    <Vendor>NextBike</Vendor>
    <City>Al Sharjah</City>
    <Country>United Arab Emirates</Country>
    <Url>http://nextbike.net/maps/nextbike-official.xml?city=233</Url>
    <Latitude>25.2199</Latitude>
    <Longitude>55.2255</Longitude>
    <CacheHack>0</CacheHack>
    <EndPointStatus>1</EndPointStatus>
  </BikeShare>
  <BikeShare>
    <Vendor>NextBike</Vendor>
    <City>Zagreb</City>
    <Country>Croatia</Country>
    <Url>http://nextbike.net/maps/nextbike-official.xml?city=220</Url>
    <Latitude>45.7988</Latitude>
    <Longitude>15.9643</Longitude>
    <CacheHack>0</CacheHack>
    <EndPointStatus>1</EndPointStatus>
  </BikeShare>
  <BikeShare>
    <Vendor>NextBike</Vendor>
    <City>Dresden</City>
    <Country>Germany</Country>
    <Url>http://nextbike.net/maps/nextbike-official.xml?city=2</Url>
    <Latitude>51.0525</Latitude>
    <Longitude>13.7444</Longitude>
    <CacheHack>0</CacheHack>
    <EndPointStatus>1</EndPointStatus>
  </BikeShare>
  <BikeShare>
    <Vendor>NextBike</Vendor>
    <City>Bietigheim-Bissingen</City>
    <Country>Germany</Country>
    <Url>http://nextbike.net/maps/nextbike-official.xml?city=226</Url>
    <Latitude>48.9495</Latitude>
    <Longitude>9.12518</Longitude>
    <CacheHack>0</CacheHack>
    <EndPointStatus>1</EndPointStatus>
  </BikeShare>
  <BikeShare>
    <Vendor>NextBike</Vendor>
    <City>Sopot</City>
    <Country>Poland</Country>
    <Url>http://nextbike.net/maps/nextbike-official.xml?city=227</Url>
    <Latitude>54.442</Latitude>
    <Longitude>18.5652</Longitude>
    <CacheHack>0</CacheHack>
    <EndPointStatus>1</EndPointStatus>
  </BikeShare>
</BikeShares>